{
    "test_1": {
        "name": "test_1塾",
        "prefecture": "秋田県",
        "city": "秋田市",
        "address_line": "手形学園町1-1",
        "coordination": {
            "latitude": 0,
            "longitude": 0
        },
        "star_rating": {
            "rate": 4.7,
            "n_evals": 10
        },
        "bio": "test_1塾です",
        "tel": "",
        "email": "flythenuggets@gmail.com"
    },
    "test_2": {
        "name": "test_2塾",
        "prefecture": "秋田県",
        "city": "秋田市",
        "address_line": "雄和椿川奥椿岱193-2",
        "coordination": {
            "latitude": 0,
            "longitude": 0
        },
        "star_rating": {
            "rate": null,
            "n_evals": 0
        },
        "bio": "test_2塾です",
        "tel": ""
    },
    "meitoku": {
        "name": "明徳個別学習教室",
        "prefecture": "秋田県",
        "city": "秋田市",
        "address_line": "東通7丁目6-17",
        "coordination": {
            "latitude": 0,
            "longitude": 0
        },
        "star_rating": {
            "rate": null,
            "n_evals": 0
        },
        "bio": "当塾では、個別指導専門塾なので、多人数での授業は行っておりません。アルバイトに頼らないベテラン講師の指導力で、生徒のやる気と学力をアップします！基礎からしっかり学び、志望校への合格を勝ち取りましょう！",
        "tel": ""
    },
    "academia": {
        "name": "個別指導スタディアカデミー",
        "prefecture": "秋田県",
        "city": "秋田市",
        "address_line": "中通2丁目MKビル２階",
        "coordination": {
            "latitude": 0,
            "longitude": 0
        },
        "star_rating": {
            "rate": null,
            "n_evals": 0
        },
        "bio": "当塾では、1対2の個別指導を行います。1人の生徒が自分で解いてる間に、もう1人の生徒へのアドバイスをします。この繰り返しは、「理解」→「実践」反復学習の理想的な形です。担当講師から教えられ、自分で解き、解ければ褒められ、次へ進む。できなければ即アドバイスがもらえ、再度チャレンジ。このサイクルで、生徒たちは徐々にやる気になり、信じられないくらい勉強が楽しくなっていきます。",
        "tel": ""
    },
    "active": {
        "name": "進学塾アクティブ",
        "prefecture": "秋田県",
        "city": "秋田市",
        "address_line": "南通宮田5丁目2-2トンボビル１階",
        "coordination": {
            "latitude": 0,
            "longitude": 0
        },
        "star_rating": {
            "rate": null,
            "n_evals": 0
        },
        "bio": "本当に理解するためには ”マンツーマン指導” がベストです！授業中は先生を独り占めできるので、自分のレベルに合わせて学校の授業内容を復習・予習したり、「前学年の苦手な分野を克服」「得意なところを伸ばす」など、目的に応じた指導が受けられます！",
        "tel": ""
    },
    "plusone": {
        "name": "秋田プラスワン未来塾",
        "prefecture": "秋田県",
        "city": "秋田市",
        "address_line": "中通4丁目13番サンプラザ2階",
        "coordination": {
            "latitude": 0,
            "longitude": 0
        },
        "star_rating": {
            "rate": null,
            "n_evals": 0
        },
        "bio": "プラスワンの医学部医学科合格実績は、毎年20名を超えます。また、中学受験・高校受験・大学受験ともに、毎年多くの生徒が1ランクアップ以上の志望校に合格しています。なぜ、このような高い合格実績を出すことができるのか？それは、受験指導における豊富なノウハウと確かなシステムが、プラスワンにあるからです。",
        "tel": ""
    },
    "takeda": {
        "name": "武田学習塾",
        "prefecture": "秋田県",
        "city": "秋田市",
        "address_line": "南通1丁目7番山本ビル4階",
        "coordination": {
            "latitude": 0,
            "longitude": 0
        },
        "star_rating": {
            "rate": null,
            "n_evals": 0
        },
        "bio": "武田学習塾は、「塾だけど、塾じゃない」ところ。高校生対象の個別指導を行っている教室はカフェのようで、固苦しいブースもなければ、スーツの先生が「勉強しろ！」と待ち構えていることもありません。なのに、塾生の学力は全員上がっているんです(偏差値平均14UP)。それは、当塾が大切にしていることが、勉強を「させる」ことではないから。だって、学校や先生に合わせた無理やりの授業で成績は上がらないから。",
        "tel": ""
    }
}